{"features":[{"type":"Feature","geometry":{"type":"Point","coordinates":[-71.76277921753068,43.17250059149936]},"properties":{"county":"MERRIMACK","type":"forest","name":"Ames State Forest","town":"HENNIKER"},"id":"865236-33-13","bbox":[-71.76278,43.1725,-71.76278,43.1725]},{"type":"Feature","geometry":{"type":"Point","coordinates":[-71.79266031227492,43.18256324731394]},"properties":{"county":"MERRIMACK","type":"stream","name":"Amey Brook","town":"HENNIKER"},"id":"865237-33-13","bbox":[-71.79267,43.18256,-71.79267,43.18256]},{"type":"Feature","geometry":{"type":"Point","coordinates":[-71.76740806124351,43.17597226543381]},"properties":{"county":"MERRIMACK","type":"forest","name":"Craney Hill State Forest","town":"HENNIKER"},"id":"866105-33-13","bbox":[-71.76741,43.17597,-71.76741,43.17597]},{"type":"Feature","geometry":{"type":"Point","coordinates":[-71.79362292663352,43.17415811626192]},"properties":{"county":"MERRIMACK","type":"stream","name":"Chase Brook","town":"HENNIKER"},"id":"866113-33-13","bbox":[-71.79363,43.17415,-71.79363,43.17415]},{"type":"Feature","geometry":{"type":"Point","coordinates":[-71.79928713974695,43.14656316618509]},"properties":{"county":"MERRIMACK","type":"cemetery","name":"Chase Cemetery","town":"HENNIKER"},"id":"866116-33-13","bbox":[-71.79929,43.14656,-71.79929,43.14656]},{"type":"Feature","geometry":{"type":"Point","coordinates":[-71.85699151731279,43.12798181938914]},"properties":{"county":"MERRIMACK","type":"summit","name":"Bear Hill","town":"HENNIKER"},"id":"865442-33-13","bbox":[-71.857,43.12798,-71.857,43.12798]},{"type":"Feature","geometry":{"type":"Point","coordinates":[-71.78354716022166,43.21573302385387]},"properties":{"county":"MERRIMACK","type":"ridge","name":"Clough Hill","town":"HENNIKER"},"id":"866218-33-13","bbox":[-71.78355,43.21573,-71.78355,43.21573]},{"type":"Feature","geometry":{"type":"Point","coordinates":[-71.82402038530302,43.179168715681016]},"properties":{"county":"MERRIMACK","type":"school","name":"Cogswell Memorial Middle School","town":"HENNIKER"},"id":"1916999-33-13","bbox":[-71.82403,43.17916,-71.82403,43.17916]},{"type":"Feature","geometry":{"type":"Point","coordinates":[-71.76768610621015,43.147441527224586]},"properties":{"county":"MERRIMACK","type":"ppl","name":"Colby","town":"HENNIKER"},"id":"866251-33-13","bbox":[-71.76769,43.14744,-71.76769,43.14744]},{"type":"Feature","geometry":{"type":"Point","coordinates":[-71.79257344411319,43.21590347190012]},"properties":{"county":"MERRIMACK","type":"cemetery","name":"Colby Cemetery","town":"HENNIKER"},"id":"866254-33-13","bbox":[-71.79258,43.2159,-71.79258,43.2159]},{"type":"Feature","geometry":{"type":"Point","coordinates":[-71.87699617803167,43.19513434974491]},"properties":{"county":"MERRIMACK","type":"summit","name":"Colby Hill","town":"HENNIKER"},"id":"866256-33-13","bbox":[-71.877,43.19513,-71.877,43.19513]},{"type":"Feature","geometry":{"type":"Point","coordinates":[-71.81832885395026,43.22333145134053]},"properties":{"county":"MERRIMACK","type":"lake","name":"Colleague Pond","town":"HENNIKER"},"id":"866285-33-13","bbox":[-71.81833,43.22333,-71.81833,43.22333]},{"type":"Feature","geometry":{"type":"Point","coordinates":[-71.84172823088213,43.16696548154059]},"properties":{"county":"MERRIMACK","type":"dam","name":"Contoocook Valley Paper Company Dam","town":"HENNIKER"},"id":"1775634-33-13","bbox":[-71.84173,43.16696,-71.84173,43.16696]},{"type":"Feature","geometry":{"type":"Point","coordinates":[-71.79817682513901,43.15062313762112]},"properties":{"county":"MERRIMACK","type":"summit","name":"Craney Hill","town":"HENNIKER"},"id":"866389-33-13","bbox":[-71.79818,43.15062,-71.79818,43.15062]},{"type":"Feature","geometry":{"type":"Point","coordinates":[-71.79306028783792,43.144168844830986]},"properties":{"county":"MERRIMACK","type":"lake","name":"Craney Pond","town":"HENNIKER"},"id":"866390-33-13","bbox":[-71.79307,43.14416,-71.79307,43.14416]},{"type":"Feature","geometry":{"type":"Point","coordinates":[-71.80123635250162,43.225559738727306]},"properties":{"county":"MERRIMACK","type":"summit","name":"Buck Hill","town":"HENNIKER"},"id":"865844-33-13","bbox":[-71.80124,43.22555,-71.80124,43.22555]},{"type":"Feature","geometry":{"type":"Point","coordinates":[-71.79354169197875,43.19121714156039]},"properties":{"county":"MERRIMACK","type":"summit","name":"Foster Hill","town":"HENNIKER"},"id":"866940-33-13","bbox":[-71.79355,43.19121,-71.79355,43.19121]},{"type":"Feature","geometry":{"type":"Point","coordinates":[-71.82250212967527,43.177219393080705]},"properties":{"county":"MERRIMACK","type":"building","name":"H Raymond Danforth Library","town":"HENNIKER"},"id":"1917096-33-13","bbox":[-71.82251,43.17721,-71.82251,43.17721]},{"type":"Feature","geometry":{"type":"Point","coordinates":[-71.7756559006473,43.191733906925585]},"properties":{"county":"MERRIMACK","type":"lake","name":"French Pond","town":"HENNIKER"},"id":"866981-33-13","bbox":[-71.77566,43.19173,-71.77566,43.19173]},{"type":"Feature","geometry":{"type":"Point","coordinates":[-71.82358832829505,43.1751502479871]},"properties":{"county":"MERRIMACK","type":"cemetery","name":"Friends Cemetery","town":"HENNIKER"},"id":"866987-33-13","bbox":[-71.82359,43.17515,-71.82359,43.17515]},{"type":"Feature","geometry":{"type":"Point","coordinates":[-71.82010036600603,43.1691508513577]},"properties":{"county":"MERRIMACK","type":"cemetery","name":"Goss Cemetery","town":"HENNIKER"},"id":"867141-33-13","bbox":[-71.82011,43.16915,-71.82011,43.16915]},{"type":"Feature","geometry":{"type":"Point","coordinates":[-71.78123583595494,43.20014893182844]},"properties":{"county":"MERRIMACK","type":"summit","name":"Goves Hill","town":"HENNIKER"},"id":"867162-33-13","bbox":[-71.78124,43.20014,-71.78124,43.20014]},{"type":"Feature","geometry":{"type":"Point","coordinates":[-71.82219063989469,43.179579731415764]},"properties":{"county":"MERRIMACK","type":"ppl","name":"Henniker","town":"HENNIKER"},"id":"867459-33-13","bbox":[-71.8222,43.17957,-71.8222,43.17957]},{"type":"Feature","geometry":{"type":"Point","coordinates":[-71.82444000239417,43.18027877342998]},"properties":{"county":"MERRIMACK","type":"school","name":"Henniker Academy (historical)","town":"HENNIKER"},"id":"1917111-33-13","bbox":[-71.82445,43.18027,-71.82445,43.18027]},{"type":"Feature","geometry":{"type":"Point","coordinates":[-71.82187693500552,43.17874818842936]},"properties":{"county":"MERRIMACK","type":"bridge","name":"Henniker Bridge","town":"HENNIKER"},"id":"1917112-33-13","bbox":[-71.82188,43.17874,-71.82188,43.17874]},{"type":"Feature","geometry":{"type":"Point","coordinates":[-71.8248596042712,43.17916871424075]},"properties":{"county":"MERRIMACK","type":"school","name":"Henniker Community School","town":"HENNIKER"},"id":"1917113-33-13","bbox":[-71.82486,43.17916,-71.82486,43.17916]},{"type":"Feature","geometry":{"type":"Point","coordinates":[-71.82365323277399,43.18063883813331]},"properties":{"county":"MERRIMACK","type":"church","name":"Henniker Congregational Church","town":"HENNIKER"},"id":"1917114-33-13","bbox":[-71.82366,43.18063,-71.82366,43.18063]},{"type":"Feature","geometry":{"type":"Point","coordinates":[-71.80256678547612,43.1740402659561]},"properties":{"county":"MERRIMACK","type":"ppl","name":"Henniker Junction","town":"HENNIKER"},"id":"867460-33-13","bbox":[-71.80257,43.17404,-71.80257,43.17404]},{"type":"Feature","geometry":{"type":"Point","coordinates":[-71.82191662124323,43.181503989086316]},"properties":{"county":"MERRIMACK","type":"po","name":"Henniker Post Office","town":"HENNIKER"},"id":"1917115-33-13","bbox":[-71.82192,43.1815,-71.82192,43.1815]},{"type":"Feature","geometry":{"type":"Point","coordinates":[-71.8221524809545,43.17409008817993]},"properties":{"county":"MERRIMACK","type":"building","name":"Henniker Town Hall","town":"HENNIKER"},"id":"1917116-33-13","bbox":[-71.82216,43.17409,-71.82216,43.17409]},{"type":"Feature","geometry":{"type":"Point","coordinates":[-71.82138825169665,43.1733283912599]},"properties":{"county":"MERRIMACK","type":"civil","name":"Henniker, Town of","town":"HENNIKER"},"id":"873623-33-13","bbox":[-71.82139,43.17332,-71.82139,43.17332]},{"type":"Feature","geometry":{"type":"Point","coordinates":[-71.80890055354848,43.13908231614178]},"properties":{"county":"MERRIMACK","type":"summit","name":"Hunger, Mount","town":"HENNIKER"},"id":"867676-33-13","bbox":[-71.80891,43.13908,-71.80891,43.13908]},{"type":"Feature","geometry":{"type":"Point","coordinates":[-71.76327079190126,43.179112548475494]},"properties":{"county":"MERRIMACK","type":"lake","name":"Keyser Pond","town":"HENNIKER"},"id":"867853-33-13","bbox":[-71.76328,43.17911,-71.76328,43.17911]},{"type":"Feature","geometry":{"type":"Point","coordinates":[-71.75943753954505,43.17889022202631]},"properties":{"county":"MERRIMACK","type":"locale","name":"Keyser Pond Campground","town":"HENNIKER"},"id":"1917156-33-13","bbox":[-71.75944,43.17889,-71.75944,43.17889]},{"type":"Feature","geometry":{"type":"Point","coordinates":[-71.86051941803485,43.20297491883217]},"properties":{"county":"MERRIMACK","type":"summit","name":"Liberty Hill","town":"HENNIKER"},"id":"868001-33-13","bbox":[-71.86052,43.20297,-71.86052,43.20297]},{"type":"Feature","geometry":{"type":"Point","coordinates":[-71.81123967224251,43.204038682201784]},"properties":{"county":"MERRIMACK","type":"lake","name":"Long Pond","town":"HENNIKER"},"id":"868143-33-13","bbox":[-71.81124,43.20403,-71.81124,43.20403]},{"type":"Feature","geometry":{"type":"Point","coordinates":[-71.79888914496748,43.200279218217936]},"properties":{"county":"MERRIMACK","type":"lake","name":"Middle Pond","town":"HENNIKER"},"id":"868420-33-13","bbox":[-71.79889,43.20027,-71.79889,43.20027]},{"type":"Feature","geometry":{"type":"Point","coordinates":[-71.87877616637965,43.2089187939431]},"properties":{"county":"MERRIMACK","type":"summit","name":"Misery, Mount","town":"HENNIKER"},"id":"868499-33-13","bbox":[-71.87878,43.20891,-71.87878,43.20891]},{"type":"Feature","geometry":{"type":"Point","coordinates":[-71.83981397490062,43.15120434315338]},"properties":{"county":"MERRIMACK","type":"summit","name":"Morrill Hill","town":"HENNIKER"},"id":"868564-33-13","bbox":[-71.83982,43.1512,-71.83982,43.1512]},{"type":"Feature","geometry":{"type":"Point","coordinates":[-71.83444212735068,43.14722061072223]},"properties":{"county":"MERRIMACK","type":"lake","name":"Morrill Pond","town":"HENNIKER"},"id":"868565-33-13","bbox":[-71.83445,43.14722,-71.83445,43.14722]},{"type":"Feature","geometry":{"type":"Point","coordinates":[-71.83498852729545,43.13776027289588]},"properties":{"county":"MERRIMACK","type":"lake","name":"Mud Pond","town":"HENNIKER"},"id":"868635-33-13","bbox":[-71.83499,43.13776,-71.83499,43.13776]},{"type":"Feature","geometry":{"type":"Point","coordinates":[-71.77073035916936,43.15988332162627]},"properties":{"county":"MERRIMACK","type":"lake","name":"Mud Pond","town":"HENNIKER"},"id":"868637-33-13","bbox":[-71.77074,43.15988,-71.77074,43.15988]},{"type":"Feature","geometry":{"type":"Point","coordinates":[-71.82277677587406,43.17721941334522]},"properties":{"county":"MERRIMACK","type":"school","name":"New England College","town":"HENNIKER"},"id":"1917192-33-13","bbox":[-71.82278,43.17721,-71.82278,43.17721]},{"type":"Feature","geometry":{"type":"Point","coordinates":[-71.82888793985799,43.1369400131384]},"properties":{"county":"MERRIMACK","type":"school","name":"Onaker School","town":"HENNIKER"},"id":"868911-33-13","bbox":[-71.82889,43.13694,-71.82889,43.13694]},{"type":"Feature","geometry":{"type":"Point","coordinates":[-71.79666902197121,43.162220010306726]},"properties":{"county":"MERRIMACK","type":"locale","name":"Pats Peak Ski Area","town":"HENNIKER"},"id":"1917244-33-13","bbox":[-71.79667,43.16222,-71.79667,43.16222]},{"type":"Feature","geometry":{"type":"Point","coordinates":[-71.82176728489382,43.130078250570925]},"properties":{"county":"MERRIMACK","type":"lake","name":"Pleasant Pond","town":"HENNIKER"},"id":"869256-33-13","bbox":[-71.82177,43.13007,-71.82177,43.13007]},{"type":"Feature","geometry":{"type":"Point","coordinates":[-71.75880933441772,43.16451215225314]},"properties":{"county":"MERRIMACK","type":"cemetery","name":"Plummer Cemetery","town":"HENNIKER"},"id":"869268-33-13","bbox":[-71.75881,43.16451,-71.75881,43.16451]},{"type":"Feature","geometry":{"type":"Point","coordinates":[-71.8275182864249,43.16576894370694]},"properties":{"county":"MERRIMACK","type":"summit","name":"Proctor Hill","town":"HENNIKER"},"id":"869365-33-13","bbox":[-71.82752,43.16576,-71.82752,43.16576]},{"type":"Feature","geometry":{"type":"Point","coordinates":[-71.82125519061412,43.18084764295687]},"properties":{"county":"MERRIMACK","type":"church","name":"Saint Theresa Catholic Church","town":"HENNIKER"},"id":"1917288-33-13","bbox":[-71.82126,43.18084,-71.82126,43.18084]},{"type":"Feature","geometry":{"type":"Point","coordinates":[-71.74309908755386,43.15724783443863]},"properties":{"county":"MERRIMACK","type":"summit","name":"Shaker Hill","town":"HENNIKER"},"id":"869865-33-13","bbox":[-71.7431,43.15724,-71.7431,43.15724]},{"type":"Feature","geometry":{"type":"Point","coordinates":[-71.82417296359023,43.18056107819608]},"properties":{"county":"MERRIMACK","type":"building","name":"Tucker Free Library","town":"HENNIKER"},"id":"1917351-33-13","bbox":[-71.82418,43.18056,-71.82418,43.18056]},{"type":"Feature","geometry":{"type":"Point","coordinates":[-71.79750060851943,43.2047195338745]},"properties":{"county":"MERRIMACK","type":"lake","name":"Upper Pond","town":"HENNIKER"},"id":"870593-33-13","bbox":[-71.79751,43.20471,-71.79751,43.20471]},{"type":"Feature","geometry":{"type":"Point","coordinates":[-71.82277675993278,43.17610931276933]},"properties":{"county":"MERRIMACK","type":"tower","name":"WNEC-FM (Henniker)","town":"HENNIKER"},"id":"873510-33-13","bbox":[-71.82278,43.1761,-71.82278,43.1761]},{"type":"Feature","geometry":{"type":"Point","coordinates":[-71.79556275853783,43.15472029177475]},"properties":{"county":"MERRIMACK","type":"tower","name":"WNNH-FM (Henniker)","town":"HENNIKER"},"id":"873508-33-13","bbox":[-71.79557,43.15472,-71.79557,43.15472]},{"type":"Feature","geometry":{"type":"Point","coordinates":[-71.86558827708525,43.183848291096574]},"properties":{"county":"MERRIMACK","type":"summit","name":"Wadsworth Hill","town":"HENNIKER"},"id":"870632-33-13","bbox":[-71.86559,43.18384,-71.86559,43.18384]},{"type":"Feature","geometry":{"type":"Point","coordinates":[-71.83231120666032,43.20011928236511]},"properties":{"county":"MERRIMACK","type":"stream","name":"Warner Brook","town":"HENNIKER"},"id":"870666-33-13","bbox":[-71.83232,43.20011,-71.83232,43.20011]},{"type":"Feature","geometry":{"type":"Point","coordinates":[-71.84271550846084,43.17031389384085]},"properties":{"county":"MERRIMACK","type":"ppl","name":"West Henniker Emerson Station","town":"HENNIKER"},"id":"870771-33-13","bbox":[-71.84272,43.17031,-71.84272,43.17031]},{"type":"Feature","geometry":{"type":"Point","coordinates":[-71.84182634485991,43.16652783633072]},"properties":{"county":"MERRIMACK","type":"reservoir","name":"West Henniker Pond","town":"HENNIKER"},"id":"1775635-33-13","bbox":[-71.84183,43.16652,-71.84183,43.16652]},{"type":"Feature","geometry":{"type":"Point","coordinates":[-71.86133894343979,43.21515992417854]},"properties":{"county":"MERRIMACK","type":"summit","name":"Windsor Ward Peak","town":"HENNIKER"},"id":"870941-33-13","bbox":[-71.86134,43.21515,-71.86134,43.21515]},{"type":"Feature","geometry":{"type":"Point","coordinates":[-71.81272061161933,43.149319056583295]},"properties":{"county":"MERRIMACK","type":"forest","name":"Totten Trails State Forest","town":"HENNIKER"},"id":"0-33-13","bbox":[-71.81273,43.14931,-71.81273,43.14931]}],"type":"FeatureCollection"}