{"features":[{"type":"Feature","geometry":{"type":"Point","coordinates":[-72.12620498790108,43.15358573710088]},"properties":{"county":"SULLIVAN","type":"church","name":"Advent Church","town":"WASHINGTON"},"id":"865204-33-19","bbox":[-72.12621,43.15358,-72.12621,43.15358]},{"type":"Feature","geometry":{"type":"Point","coordinates":[-72.09858633387265,43.20088261583292]},"properties":{"county":"SULLIVAN","type":"summit","name":"Ames Hill","town":"WASHINGTON"},"id":"865235-33-19","bbox":[-72.09859,43.20088,-72.09859,43.20088]},{"type":"Feature","geometry":{"type":"Point","coordinates":[-72.15018292207732,43.151684194720055]},"properties":{"county":"SULLIVAN","type":"lake","name":"Ashuelot Pond","town":"WASHINGTON"},"id":"865271-33-19","bbox":[-72.15019,43.15168,-72.15019,43.15168]},{"type":"Feature","geometry":{"type":"Point","coordinates":[-72.15418236635628,43.14929963466924]},"properties":{"county":"SULLIVAN","type":"dam","name":"Ashuelot Pond Dam","town":"WASHINGTON"},"id":"1775180-33-19","bbox":[-72.15419,43.14929,-72.15419,43.14929]},{"type":"Feature","geometry":{"type":"Point","coordinates":[-72.09750363651537,43.22222136624997]},"properties":{"county":"SULLIVAN","type":"lake","name":"Bacon Pond","town":"WASHINGTON"},"id":"865311-33-19","bbox":[-72.09751,43.22222,-72.09751,43.22222]},{"type":"Feature","geometry":{"type":"Point","coordinates":[-72.10869742764442,43.13537443358304]},"properties":{"county":"SULLIVAN","type":"lake","name":"Barden Pond","town":"WASHINGTON"},"id":"865377-33-19","bbox":[-72.1087,43.13537,-72.1087,43.13537]},{"type":"Feature","geometry":{"type":"Point","coordinates":[-72.13948453918557,43.147620579893434]},"properties":{"county":"SULLIVAN","type":"stream","name":"Barney Brook","town":"WASHINGTON"},"id":"1957100-33-19","bbox":[-72.13949,43.14762,-72.13949,43.14762]},{"type":"Feature","geometry":{"type":"Point","coordinates":[-72.07728245565616,43.17280347769266]},"properties":{"county":"SULLIVAN","type":"lake","name":"Barney Pond","town":"WASHINGTON"},"id":"865384-33-19","bbox":[-72.07729,43.1728,-72.07729,43.1728]},{"type":"Feature","geometry":{"type":"Point","coordinates":[-72.17227725632647,43.14170226227793]},"properties":{"county":"SULLIVAN","type":"lake","name":"Barrett Pond","town":"WASHINGTON"},"id":"865392-33-19","bbox":[-72.17228,43.1417,-72.17228,43.1417]},{"type":"Feature","geometry":{"type":"Point","coordinates":[-72.10407889336346,43.23114960522536]},"properties":{"county":"SULLIVAN","type":"stream","name":"Cherry Brook","town":"WASHINGTON"},"id":"1957507-33-19","bbox":[-72.10408,43.23114,-72.10408,43.23114]},{"type":"Feature","geometry":{"type":"Point","coordinates":[-72.09073430882128,43.23852279810305]},"properties":{"county":"SULLIVAN","type":"lake","name":"Bear Pond","town":"WASHINGTON"},"id":"865456-33-19","bbox":[-72.09074,43.23852,-72.09074,43.23852]},{"type":"Feature","geometry":{"type":"Point","coordinates":[-72.10148209730802,43.23440705740214]},"properties":{"county":"SULLIVAN","type":"lake","name":"Mill Pond","town":"WASHINGTON"},"id":"0-33-19","bbox":[-72.10149,43.2344,-72.10149,43.2344]},{"type":"Feature","geometry":{"type":"Point","coordinates":[-72.09246093547756,43.14852875649495]},"properties":{"county":"SULLIVAN","type":"stream","name":"Bog Brook","town":"WASHINGTON"},"id":"865691-33-19","bbox":[-72.09247,43.14852,-72.09247,43.14852]},{"type":"Feature","geometry":{"type":"Point","coordinates":[-72.11949973082271,43.230126669737814]},"properties":{"county":"SULLIVAN","type":"lake","name":"Butterfield Pond","town":"WASHINGTON"},"id":"865889-33-19","bbox":[-72.1195,43.23012,-72.1195,43.23012]},{"type":"Feature","geometry":{"type":"Point","coordinates":[-72.11843107458292,43.22628406481764]},"properties":{"county":"SULLIVAN","type":"dam","name":"Butterfield Pond Dam","town":"WASHINGTON"},"id":"1775174-33-19","bbox":[-72.11844,43.22628,-72.11844,43.22628]},{"type":"Feature","geometry":{"type":"Point","coordinates":[-72.0960433226339,43.1767379346397]},"properties":{"county":"SULLIVAN","type":"school","name":"Center School","town":"WASHINGTON"},"id":"1917652-33-19","bbox":[-72.09605,43.17673,-72.09605,43.17673]},{"type":"Feature","geometry":{"type":"Point","coordinates":[-72.11978574713318,43.212022032347186]},"properties":{"county":"SULLIVAN","type":"summit","name":"Codman Hill","town":"WASHINGTON"},"id":"866239-33-19","bbox":[-72.11979,43.21202,-72.11979,43.21202]},{"type":"Feature","geometry":{"type":"Point","coordinates":[-72.11029274775612,43.24699333614686]},"properties":{"county":"SULLIVAN","type":"summit","name":"Bryant Mountain","town":"WASHINGTON"},"id":"865840-33-19","bbox":[-72.1103,43.24699,-72.1103,43.24699]},{"type":"Feature","geometry":{"type":"Point","coordinates":[-72.13084376869318,43.172760163321904]},"properties":{"county":"SULLIVAN","type":"summit","name":"Farnsworth Hill","town":"WASHINGTON"},"id":"866842-33-19","bbox":[-72.13085,43.17276,-72.13085,43.17276]},{"type":"Feature","geometry":{"type":"Point","coordinates":[-72.01889036309471,43.19110868911454]},"properties":{"county":"SULLIVAN","type":"ppl","name":"East Washington","town":"WASHINGTON"},"id":"866733-33-19","bbox":[-72.0189,43.1911,-72.0189,43.1911]},{"type":"Feature","geometry":{"type":"Point","coordinates":[-72.11322732850422,43.20844271312213]},"properties":{"county":"SULLIVAN","type":"lake","name":"Fletcher Pond","town":"WASHINGTON"},"id":"866897-33-19","bbox":[-72.11323,43.20844,-72.11323,43.20844]},{"type":"Feature","geometry":{"type":"Point","coordinates":[-72.08234122604017,43.13800573018457]},"properties":{"county":"SULLIVAN","type":"bay","name":"North Outlet","town":"WASHINGTON"},"id":"868800-33-19","bbox":[-72.08235,43.138,-72.08235,43.138]},{"type":"Feature","geometry":{"type":"Point","coordinates":[-72.09833027377609,43.241408414376956]},"properties":{"county":"SULLIVAN","type":"lake","name":"North Pond","town":"WASHINGTON"},"id":"868806-33-19","bbox":[-72.09834,43.2414,-72.09834,43.2414]},{"type":"Feature","geometry":{"type":"Point","coordinates":[-72.07694243439349,43.13000108370245]},"properties":{"county":"SULLIVAN","type":"stream","name":"Freezeland Creek","town":"WASHINGTON"},"id":"866976-33-19","bbox":[-72.07695,43.13,-72.07695,43.13]},{"type":"Feature","geometry":{"type":"Point","coordinates":[-72.07417295889047,43.16444015503713]},"properties":{"county":"SULLIVAN","type":"lake","name":"Freezeland Pond","town":"WASHINGTON"},"id":"866977-33-19","bbox":[-72.07418,43.16444,-72.07418,43.16444]},{"type":"Feature","geometry":{"type":"Point","coordinates":[-72.09139251885962,43.216110246619074]},"properties":{"county":"SULLIVAN","type":"lake","name":"Frog Pond","town":"WASHINGTON"},"id":"866991-33-19","bbox":[-72.0914,43.21611,-72.0914,43.21611]},{"type":"Feature","geometry":{"type":"Point","coordinates":[-72.08453526029905,43.182183795769184]},"properties":{"county":"SULLIVAN","type":"lake","name":"Halfmoon Pond","town":"WASHINGTON"},"id":"867315-33-19","bbox":[-72.08454,43.18218,-72.08454,43.18218]},{"type":"Feature","geometry":{"type":"Point","coordinates":[-72.12040191578988,43.130883116031704]},"properties":{"county":"SULLIVAN","type":"summit","name":"Healey Hill","town":"WASHINGTON"},"id":"867432-33-19","bbox":[-72.12041,43.13088,-72.12041,43.13088]},{"type":"Feature","geometry":{"type":"Point","coordinates":[-72.11750031534983,43.214168561418994]},"properties":{"county":"SULLIVAN","type":"lake","name":"Hedgehog Pond","town":"WASHINGTON"},"id":"867450-33-19","bbox":[-72.11751,43.21416,-72.11751,43.21416]},{"type":"Feature","geometry":{"type":"Point","coordinates":[-72.08159631513647,43.13814924810371]},"properties":{"county":"SULLIVAN","type":"dam","name":"Highland Lake North Outlet Dam","town":"WASHINGTON"},"id":"1775182-33-19","bbox":[-72.0816,43.13814,-72.0816,43.13814]},{"type":"Feature","geometry":{"type":"Point","coordinates":[-72.06526197358117,43.17659508824115]},"properties":{"county":"SULLIVAN","type":"lake","name":"Island Pond","town":"WASHINGTON"},"id":"867733-33-19","bbox":[-72.06527,43.17659,-72.06527,43.17659]},{"type":"Feature","geometry":{"type":"Point","coordinates":[-72.05941761132388,43.171363821938264]},"properties":{"county":"SULLIVAN","type":"dam","name":"Island Pond Dam","town":"WASHINGTON"},"id":"1775176-33-19","bbox":[-72.05942,43.17136,-72.05942,43.17136]},{"type":"Feature","geometry":{"type":"Point","coordinates":[-72.10059399355,43.21161042868622]},"properties":{"county":"SULLIVAN","type":"summit","name":"Jones Hill","town":"WASHINGTON"},"id":"867807-33-19","bbox":[-72.1006,43.21161,-72.1006,43.21161]},{"type":"Feature","geometry":{"type":"Point","coordinates":[-72.04501792212687,43.164456948048304]},"properties":{"county":"SULLIVAN","type":"summit","name":"Kingsbury Hill","town":"WASHINGTON"},"id":"867891-33-19","bbox":[-72.04502,43.16445,-72.04502,43.16445]},{"type":"Feature","geometry":{"type":"Point","coordinates":[-72.0850299585205,43.22669891547656]},"properties":{"county":"SULLIVAN","type":"summit","name":"Kittredge Hill","town":"WASHINGTON"},"id":"867897-33-19","bbox":[-72.08503,43.22669,-72.08503,43.22669]},{"type":"Feature","geometry":{"type":"Point","coordinates":[-72.06100249964547,43.20352508041819]},"properties":{"county":"SULLIVAN","type":"ridge","name":"Lovewell Mountain","town":"WASHINGTON"},"id":"868195-33-19","bbox":[-72.06101,43.20352,-72.06101,43.20352]},{"type":"Feature","geometry":{"type":"Point","coordinates":[-72.10930871195005,43.23026158602953]},"properties":{"county":"SULLIVAN","type":"lake","name":"May Pond","town":"WASHINGTON"},"id":"868313-33-19","bbox":[-72.10931,43.23026,-72.10931,43.23026]},{"type":"Feature","geometry":{"type":"Point","coordinates":[-72.12083827403941,43.16821293236605]},"properties":{"county":"SULLIVAN","type":"lake","name":"Millen Lake","town":"WASHINGTON"},"id":"868453-33-19","bbox":[-72.12084,43.16821,-72.12084,43.16821]},{"type":"Feature","geometry":{"type":"Point","coordinates":[-72.12720487931519,43.15842057752728]},"properties":{"county":"SULLIVAN","type":"dam","name":"Millen Lake Dam","town":"WASHINGTON"},"id":"1775178-33-19","bbox":[-72.12721,43.15842,-72.12721,43.15842]},{"type":"Feature","geometry":{"type":"Point","coordinates":[-72.07998472193586,43.238832939774746]},"properties":{"county":"SULLIVAN","type":"trail","name":"Monadnock Sunapee Trail","town":"WASHINGTON"},"id":"871322-33-19","bbox":[-72.07999,43.23883,-72.07999,43.23883]},{"type":"Feature","geometry":{"type":"Point","coordinates":[-72.06694032054091,43.129440296971474]},"properties":{"county":"SULLIVAN","type":"lake","name":"Mud Pond","town":"WASHINGTON"},"id":"868634-33-19","bbox":[-72.06695,43.12944,-72.06695,43.12944]},{"type":"Feature","geometry":{"type":"Point","coordinates":[-72.10851126092004,43.15849155996003]},"properties":{"county":"SULLIVAN","type":"summit","name":"Oak Hill","town":"WASHINGTON"},"id":"868868-33-19","bbox":[-72.10852,43.15849,-72.10852,43.15849]},{"type":"Feature","geometry":{"type":"Point","coordinates":[-72.08110809596444,43.156940449961006]},"properties":{"county":"SULLIVAN","type":"lake","name":"Philbrick Pond","town":"WASHINGTON"},"id":"869113-33-19","bbox":[-72.08111,43.15694,-72.08111,43.15694]},{"type":"Feature","geometry":{"type":"Point","coordinates":[-72.10365223579846,43.23224728497963]},"properties":{"county":"SULLIVAN","type":"park","name":"Pillsbury State Park","town":"WASHINGTON"},"id":"871329-33-19","bbox":[-72.10366,43.23224,-72.10366,43.23224]},{"type":"Feature","geometry":{"type":"Point","coordinates":[-72.16044008032573,43.14840446255612]},"properties":{"county":"SULLIVAN","type":"lake","name":"Russell Millpond","town":"WASHINGTON"},"id":"869649-33-19","bbox":[-72.16045,43.1484,-72.16045,43.1484]},{"type":"Feature","geometry":{"type":"Point","coordinates":[-72.03028104303951,43.15499877575494]},"properties":{"county":"SULLIVAN","type":"lake","name":"Smith Pond","town":"WASHINGTON"},"id":"869983-33-19","bbox":[-72.03029,43.15499,-72.03029,43.15499]},{"type":"Feature","geometry":{"type":"Point","coordinates":[-72.1662271108671,43.136107297276766]},"properties":{"county":"SULLIVAN","type":"summit","name":"Starks Hill","town":"WASHINGTON"},"id":"870149-33-19","bbox":[-72.16623,43.1361,-72.16623,43.1361]},{"type":"Feature","geometry":{"type":"Point","coordinates":[-72.12080941979508,43.23531947833723]},"properties":{"county":"SULLIVAN","type":"lake","name":"Vickery Pond","town":"WASHINGTON"},"id":"870616-33-19","bbox":[-72.12081,43.23531,-72.12081,43.23531]},{"type":"Feature","geometry":{"type":"Point","coordinates":[-72.09667810892633,43.17631874903575]},"properties":{"county":"SULLIVAN","type":"ppl","name":"Washington","town":"WASHINGTON"},"id":"870675-33-19","bbox":[-72.09668,43.17631,-72.09668,43.17631]},{"type":"Feature","geometry":{"type":"Point","coordinates":[-72.09628635893374,43.176427204974]},"properties":{"county":"SULLIVAN","type":"park","name":"Washington Common Historic District","town":"WASHINGTON"},"id":"1917757-33-19","bbox":[-72.09629,43.17642,-72.09629,43.17642]},{"type":"Feature","geometry":{"type":"Point","coordinates":[-72.0964022935858,43.17681602867284]},"properties":{"county":"SULLIVAN","type":"church","name":"Washington Congregational Church","town":"WASHINGTON"},"id":"1917758-33-19","bbox":[-72.09641,43.17681,-72.09641,43.17681]},{"type":"Feature","geometry":{"type":"Point","coordinates":[-72.0974548513791,43.17655485717477]},"properties":{"county":"SULLIVAN","type":"church","name":"Washington Meeting House","town":"WASHINGTON"},"id":"1917759-33-19","bbox":[-72.09746,43.17655,-72.09746,43.17655]},{"type":"Feature","geometry":{"type":"Point","coordinates":[-72.09722137550489,43.176109305894755]},"properties":{"county":"SULLIVAN","type":"building","name":"Washington Museum","town":"WASHINGTON"},"id":"1917760-33-19","bbox":[-72.09723,43.1761,-72.09723,43.1761]},{"type":"Feature","geometry":{"type":"Point","coordinates":[-72.08556368214732,43.18193815779602]},"properties":{"county":"SULLIVAN","type":"civil","name":"Washington, Town of","town":"WASHINGTON"},"id":"873747-33-19","bbox":[-72.08557,43.18193,-72.08557,43.18193]},{"type":"Feature","geometry":{"type":"Point","coordinates":[-72.02117254685768,43.19165231908143]},"properties":{"county":"SULLIVAN","type":"stream","name":"Woodward Brook","town":"WASHINGTON"},"id":"870999-33-19","bbox":[-72.02118,43.19165,-72.02118,43.19165]}],"type":"FeatureCollection"}